City_ID,City,Lat,Lng,Max Temp,Humidity,Cloudiness,Wind Speed,Country,Date
0,neverkino,52.7854,46.7417,3.32,96,93,3.71,RU,1699932950
1,grytviken,-54.2811,-36.5092,1.66,98,100,3.31,GS,1699932950
2,iqaluit,63.7506,-68.5145,-17.95,64,0,2.06,CA,1699932950
3,bethel,41.3712,-73.414,3.85,82,0,2.06,US,1699932950
4,christchurch,-43.5333,172.6333,25.11,36,20,9.77,NZ,1699932809
5,yoko,5.5333,12.3167,18.01,97,97,1.12,CM,1699932950
6,port-aux-francais,-49.35,70.2167,6.46,97,100,15.14,TF,1699932951
7,west island,-12.1568,96.8225,28.99,70,40,4.63,CC,1699932951
8,avarua,-21.2078,-159.775,23.03,64,20,3.6,CK,1699932700
9,benjamin constant,-4.3831,-70.0311,25.07,95,73,0.58,BR,1699932951
10,hithadhoo,-0.6,73.0833,27.52,79,57,4.64,MV,1699932951
11,edinburgh of the seven seas,-37.0676,-12.3116,13.53,78,11,11.8,SH,1699932951
12,puerto natales,-51.7236,-72.4875,0.85,83,81,4.47,CL,1699932952
13,herceg novi,42.4531,18.5375,13.49,100,100,0.0,ME,1699932952
14,blackmans bay,-43.0167,147.3167,15.85,55,12,5.03,AU,1699932952
15,fale old settlement,-9.3852,-171.2468,26.45,84,100,0.73,TK,1699932952
16,harstad,68.799,16.5293,-2.69,64,11,1.32,NO,1699932836
17,yellowknife,62.456,-114.3525,-3.71,93,100,6.17,CA,1699932953
18,kapuskasing,49.4169,-82.4331,1.05,93,100,3.6,CA,1699932953
19,mount pearl,47.5166,-52.7813,-0.93,83,75,2.57,CA,1699932722
20,saint-philippe,-21.3585,55.7679,24.77,77,53,3.33,RE,1699932953
21,tolanaro,-25.0319,46.9987,24.13,69,26,2.79,MG,1699932731
22,talnakh,69.4865,88.3972,-21.59,96,40,2.74,RU,1699932953
23,nova sintra,14.8667,-24.7167,23.78,72,100,5.57,CV,1699932912
24,hasaki,35.7333,140.8333,17.22,33,0,1.56,JP,1699932891
25,ushuaia,-54.8,-68.3,1.81,75,0,2.06,AR,1699932924
26,arraial do cabo,-22.9661,-42.0278,24.98,88,0,4.12,BR,1699932954
27,margaret river,-33.95,115.0667,20.27,63,100,5.07,AU,1699932954
28,utrik,11.2278,169.8474,27.97,81,100,8.3,MH,1699932954
29,adamstown,-25.066,-130.1015,22.94,86,100,8.02,PN,1699932954
30,port elizabeth,-33.918,25.5701,16.16,83,75,4.63,ZA,1699932955
31,newman,37.3138,-121.0208,15.72,68,38,2.45,US,1699932955
32,puerto baquerizo moreno,-0.9,-89.6,23.76,82,96,4.21,EC,1699932955
33,stanley,54.868,-1.6985,7.06,92,20,2.57,GB,1699932955
34,santa terezinha,-29.9002,-50.0904,20.28,96,100,1.39,BR,1699932955
35,punta arenas,-53.15,-70.9167,2.06,75,20,5.14,CL,1699932955
36,dudinka,69.4058,86.1778,-24.91,95,17,1.44,RU,1699932956
37,ribeira grande,38.5167,-28.7,16.54,81,100,2.68,PT,1699932956
38,kota bharu,6.1333,102.2386,29.97,74,40,0.0,MY,1699932956
39,kondoa,-4.9,35.7833,18.47,88,86,1.72,TZ,1699932956
40,nogliki,51.8333,143.1667,-4.81,68,66,6.71,RU,1699932956
41,remire-montjoly,4.9167,-52.2667,25.02,94,0,0.0,GF,1699932657
42,bredasdorp,-34.5322,20.0403,14.86,82,35,7.47,ZA,1699932861
43,san juan de miraflores,-12.1629,-76.9635,20.09,83,67,4.37,PE,1699932957
44,ifanadiana,-21.3,47.6333,23.41,72,14,0.25,MG,1699932957
45,eyl,7.9803,49.8164,27.46,73,19,6.26,SO,1699932957
46,aykhal,66.0,111.5,-8.69,94,100,3.9,RU,1699932681
47,jamestown,42.097,-79.2353,8.77,73,20,6.17,US,1699932867
48,lerwick,60.1545,-1.1494,6.87,77,71,4.63,GB,1699932958
49,portland,45.5234,-122.6762,9.49,90,0,2.24,US,1699932782
50,clodomira,-27.5744,-64.1311,21.38,42,86,0.85,AR,1699932958
51,albany,42.6001,-73.9662,1.44,85,72,0.88,US,1699932937
52,ola,59.5833,151.2833,-16.03,72,68,5.04,RU,1699932958
53,yigo village,13.5361,144.8886,31.62,73,40,10.29,GU,1699932958
54,lata,40.1629,-8.3327,13.93,95,58,1.06,PT,1699932959
55,vorgashor,67.5833,63.95,-12.39,88,100,3.89,RU,1699932662
56,namtsy,62.7161,129.6658,-21.06,96,94,1.55,RU,1699932959
57,kodiak,57.79,-152.4072,4.73,48,0,4.63,US,1699932959
58,bloemfontein,-29.1211,26.214,7.71,81,11,0.0,ZA,1699932800
59,cockburn town,21.4612,-71.1419,27.84,76,8,8.33,TC,1699932879
60,ust-nera,64.5667,143.2,-28.44,98,55,2.41,RU,1699932960
61,puerto ayora,-0.7393,-90.3518,23.08,100,78,3.13,EC,1699932960
62,mollendo,-17.0231,-72.0147,18.62,87,73,3.43,PE,1699932960
63,mount isa,-20.7333,139.5,38.87,12,0,7.2,AU,1699932960
64,tazovsky,67.4667,78.7,-18.02,98,54,3.45,RU,1699932961
65,waitangi,-43.9535,-176.5597,13.29,88,8,9.2,NZ,1699932961
66,thompson,55.7435,-97.8558,-2.91,93,75,1.54,CA,1699932961
67,bryne,58.7354,5.6477,5.32,65,100,2.06,NO,1699932961
68,coahuayana de hidalgo,18.7,-103.6583,25.86,83,11,1.18,MX,1699932961
69,taybad,34.74,60.7756,14.85,34,86,1.24,IR,1699932962
70,ilulissat,69.2167,-51.1,-3.99,63,100,6.17,GL,1699932963
71,cameta,-2.2444,-49.4958,26.42,77,33,3.42,BR,1699932964
72,alpena,45.0617,-83.4327,6.18,70,100,4.12,US,1699932964
73,iskateley,67.6803,53.1512,-7.77,96,100,4.02,RU,1699932964
74,manay,7.215,126.5397,30.66,62,33,3.35,PH,1699932964
75,twistringen,52.8,8.65,11.55,81,91,11.58,DE,1699932965
76,sarmasu,46.75,24.1667,4.78,82,100,2.14,RO,1699932965
77,khorixas,-20.3667,14.9667,24.32,37,72,1.07,NA,1699932965
78,fort bragg,35.139,-79.006,8.78,85,0,0.0,US,1699932695
79,tiksi,71.6872,128.8694,-14.58,94,100,1.94,RU,1699932966
80,isangel,-19.55,169.2667,27.06,69,75,6.17,VU,1699932966
81,xinyuan,37.3,99.0,0.81,15,9,1.81,CN,1699932966
82,la tuque,47.4334,-72.7824,-0.86,74,100,1.03,CA,1699932831
83,georgetown,5.4112,100.3354,31.64,79,20,2.57,MY,1699932802
84,invercargill,-46.4,168.35,11.68,91,89,6.71,NZ,1699932945
85,port mathurin,-19.6833,63.4167,27.05,83,20,2.06,MU,1699932967
86,kone,-21.0595,164.8658,27.18,46,5,4.3,NC,1699932729
87,baoro,5.6667,15.9667,20.07,94,17,0.9,CF,1699932968
88,isafjordur,66.0755,-23.124,1.5,86,40,2.95,IS,1699932968
89,itoman,26.1247,127.6694,23.43,55,75,5.14,JP,1699932968
90,port lincoln,-34.7333,135.8667,17.53,67,58,4.37,AU,1699932969
91,nikolayevsk-on-amure,53.1406,140.73,-5.17,85,100,4.37,RU,1699932969
92,lihue,21.9789,-159.3672,27.58,75,40,7.2,US,1699932969
93,tabou,4.423,-7.3528,25.49,87,6,1.88,CI,1699932970
94,jand,33.4299,72.0193,20.44,42,0,1.27,PK,1699932970
95,olonkinbyen,70.9221,-8.7187,-1.37,76,98,3.77,SJ,1699932970
96,mhamid,29.82,-5.72,18.97,32,55,0.66,MA,1699932971
97,cacheu,12.2706,-16.1658,24.05,71,62,1.31,GW,1699932971
98,hamilton,39.1834,-84.5333,10.24,57,0,1.34,US,1699932690
99,sao joao da barra,-21.6403,-41.0511,23.53,92,68,2.68,BR,1699932798
100,vredendal,-31.6683,18.5012,20.06,41,33,5.27,ZA,1699932972
101,kimbe,-5.5502,150.1429,30.51,62,100,1.93,PG,1699932972
102,bani walid,31.7566,13.9942,15.35,86,0,3.3,LY,1699932972
103,robit,12.0167,39.6333,18.44,71,35,1.18,ET,1699932973
104,crane,31.3974,-102.3501,10.95,83,100,2.91,US,1699932973
105,northam,51.0333,-4.2167,13.12,91,95,9.72,GB,1699932973
106,kota belud,6.351,116.4305,31.86,60,50,2.39,MY,1699932893
107,bilibino,68.0546,166.4372,-29.18,100,100,1.0,RU,1699932974
108,edgewater,28.9889,-80.9023,22.01,97,100,5.14,US,1699932975
109,colonia,50.9333,6.95,12.13,75,75,8.75,DE,1699932975
110,ghadamis,30.1337,9.5007,16.84,50,0,3.63,LY,1699932975
111,college,64.8569,-147.8028,-3.03,90,100,0.0,US,1699932975
112,mbandaka,0.0487,18.2603,21.92,98,73,0.82,CD,1699932976
113,sola,-13.8833,167.55,27.37,74,100,2.06,VU,1699932976
114,enewetak,11.3474,162.3373,28.4,81,87,8.3,MH,1699932765
115,kulhudhuffushi,6.6221,73.07,27.69,73,26,1.2,MV,1699932976
116,bundibugyo,0.7414,30.0417,18.71,93,87,0.87,UG,1699932977
117,ribeira do pombal,-10.8344,-38.5358,19.66,91,13,2.03,BR,1699932977
118,sidi yahia el gharb,34.3065,-6.3062,10.37,50,24,0.56,MA,1699932978
119,papatowai,-46.5619,169.4708,15.69,56,59,6.96,NZ,1699932978
120,san patricio,28.017,-97.5169,17.69,88,100,5.22,US,1699932853
121,comodoro rivadavia,-45.8667,-67.5,8.92,29,0,9.26,AR,1699932815
122,shemysheyka,52.892,45.3928,5.58,92,100,4.52,RU,1699932978
123,dawson creek,55.7666,-120.2362,-7.2,86,0,3.09,CA,1699932979
124,laojunmiao,39.8333,97.7333,0.91,33,92,4.39,CN,1699932979
125,mankono,8.0586,-6.1897,22.78,78,1,0.54,CI,1699932979
126,las brenas,-27.0897,-61.0816,20.51,95,100,2.23,AR,1699932980
127,fonte boa,-2.4959,-66.2662,25.11,79,74,0.09,BR,1699932980
128,edd,13.9297,41.6925,29.63,47,85,5.28,ER,1699932980
129,tidjikja,18.5564,-11.4271,23.51,15,5,5.47,MR,1699932980
130,poyang,28.9924,116.6675,12.77,45,0,2.14,CN,1699932981
131,hadibu,12.65,54.0333,26.92,83,76,4.79,YE,1699932981
132,cururupu,-1.8283,-44.8683,24.43,85,7,2.17,BR,1699932981
133,badger,64.8,-147.5333,-3.07,91,100,0.0,US,1699932981
134,dunedin,-45.8742,170.5036,16.0,69,100,1.79,NZ,1699932982
135,damghan,36.1683,54.348,13.42,44,99,1.12,IR,1699932982
136,east ballina,-28.8667,153.5833,27.67,71,40,6.41,AU,1699932982
137,constantia,44.1833,28.65,5.38,62,58,4.16,RO,1699932983
138,st. john's,47.5649,-52.7093,-0.47,83,75,2.57,CA,1699932958
139,abadiania,-16.2042,-48.7069,21.51,40,37,0.35,BR,1699932983
140,el calafate,-50.3408,-72.2768,2.76,63,82,5.25,AR,1699932901
141,pizarro,4.9533,-77.366,25.92,90,19,0.92,CO,1699932984
142,carnarvon,-24.8667,113.6333,22.92,63,92,4.41,AU,1699932984
143,amahai,-3.3333,128.9167,29.62,69,63,3.54,ID,1699932985
144,karratha,-20.7377,116.8463,30.68,34,5,7.68,AU,1699932985
145,wailua homesteads,22.0669,-159.378,27.24,81,40,7.2,US,1699932985
146,kill devil hills,36.0307,-75.676,10.01,80,0,1.54,US,1699932985
147,flying fish cove,-10.4217,105.6791,27.82,74,100,5.14,CX,1699932985
148,aasiaat,68.7098,-52.8699,-11.17,82,100,1.29,GL,1699932986
149,tavda,58.0425,65.2726,0.94,95,100,1.79,RU,1699932986
150,afaahiti,-17.75,-149.2833,27.81,90,95,6.49,PF,1699932986
151,qobustan,40.0824,49.412,14.43,85,27,2.94,AZ,1699932986
152,weno,7.4515,151.8468,30.97,74,100,1.54,FM,1699932746
153,kalmunai,7.4167,81.8167,27.91,77,62,1.66,LK,1699932924
154,selfoss,63.9331,-20.9971,6.14,75,78,8.0,IS,1699932987
155,saint-georges,12.0564,-61.7485,27.82,83,40,6.17,GD,1699932988
156,masterton,-40.9597,175.6575,17.71,55,67,6.26,NZ,1699932857
157,urangan,-25.3,152.9,24.18,70,0,7.22,AU,1699932790
158,laguna,38.421,-121.4238,15.17,74,0,0.0,US,1699932989
159,toyooka,35.5333,134.8333,14.03,67,40,1.54,JP,1699932989
160,oliveira,-20.6964,-44.8272,22.18,52,8,1.94,BR,1699932989
161,marsa alam,25.0757,34.8918,25.48,76,6,3.92,EG,1699932989
162,anadyr,64.75,177.4833,-13.72,71,5,12.0,RU,1699932990
163,barabinsk,55.3571,78.357,2.21,85,100,2.33,RU,1699932990
164,chibougamau,49.9168,-74.3659,-5.21,93,100,3.09,CA,1699932990
165,ouadda,8.0777,22.4007,20.91,88,93,1.46,CF,1699932990
166,puerto deseado,-47.7503,-65.8938,8.65,44,100,10.18,AR,1699932991
167,ta`u,-14.2336,-169.5144,27.3,82,57,5.21,AS,1699932991
168,dno,57.8277,29.9637,0.87,94,100,2.81,RU,1699932991
169,pitimbu,-7.4706,-34.8086,26.33,80,55,3.53,BR,1699932992
170,yuci,37.6803,112.7319,4.86,36,0,1.0,CN,1699932992
171,bourg-saint-andeol,44.3757,4.6427,14.93,80,100,0.97,FR,1699932992
172,al ghayzah,16.2079,52.176,25.87,69,100,1.53,YE,1699932992
173,donetsk,48.0,37.8,7.11,66,100,1.34,UA,1699932723
174,namibe,-15.1961,12.1522,22.44,67,97,2.16,AO,1699932993
175,el kef,36.1742,8.7049,6.85,55,13,2.48,TN,1699932993
176,haiku-pauwela,20.9219,-156.3051,25.02,66,20,7.2,US,1699932993
177,palangkaraya,-2.2,113.8333,34.47,48,98,1.7,ID,1699932993
178,awjilah,29.1081,21.2869,17.71,89,0,3.79,LY,1699932994
179,lebu,-37.6167,-73.65,9.1,89,34,3.52,CL,1699932994
180,winkler,49.1817,-97.941,4.1,87,100,5.14,CA,1699932994
181,kannangad,12.3081,75.1063,27.83,62,48,1.03,IN,1699932995
182,tianpeng,30.9866,103.9393,10.91,71,97,1.03,CN,1699932995
183,olyokminsk,60.3736,120.4264,-6.06,86,100,2.46,RU,1699932996
184,souillac,-20.5167,57.5167,23.21,88,75,1.54,MU,1699932763
185,gudur,14.1333,79.85,27.09,70,100,3.58,IN,1699932997
186,kyshtovka,56.555,76.6271,-0.37,77,100,4.02,RU,1699932997
187,petropavlovsk-kamchatsky,53.0452,158.6483,-3.08,74,0,12.52,RU,1699932997
188,prince rupert,54.3161,-130.3201,7.83,67,75,5.14,CA,1699932998
189,tosontsengel,48.7567,98.2839,-10.88,93,100,1.48,MN,1699932998
190,alofi,-19.0595,-169.9187,25.94,89,100,5.14,NU,1699932998
191,berezovyy,51.6667,135.7,-4.03,46,0,1.15,RU,1699932998
192,norrtalje,59.758,18.705,2.79,96,100,3.54,SE,1699932999
193,ketchikan,55.3422,-131.6461,3.99,87,0,2.06,US,1699932863
194,luderitz,-26.6481,15.1594,15.9,75,0,2.49,NA,1699932999
195,maintirano,-18.0667,44.0167,26.45,68,0,5.26,MG,1699932999
196,mili,6.0815,171.735,27.95,81,100,6.92,MH,1699932999
197,kutum,14.2,24.6667,22.05,37,35,4.36,SD,1699933000
198,soc trang,9.6033,105.98,29.95,70,99,5.49,VN,1699933000
199,tazacorte,28.629,-17.9293,23.97,33,0,4.02,ES,1699932751
200,saham,24.1722,56.8886,26.53,35,59,2.16,OM,1699933001
201,kruisfontein,-34.0033,24.7314,11.97,87,35,2.45,ZA,1699933001
202,mao,39.8885,4.2658,17.31,100,0,2.57,ES,1699932825
203,tanout,14.9709,8.8879,21.39,16,26,4.81,NE,1699933001
204,tongliao,43.6125,122.2653,1.89,70,2,3.11,CN,1699933002
205,columbia falls,48.3725,-114.1815,6.34,68,100,4.63,US,1699933002
206,yasnyy,51.0333,59.8742,5.01,80,100,7.99,RU,1699933002
207,keflavik,64.0049,-22.5624,7.95,65,75,7.2,IS,1699933002
208,al muwayh,22.4333,41.7583,22.1,39,72,4.39,SA,1699933003
209,kingman,35.1894,-114.053,17.53,30,0,3.6,US,1699932708
210,santa eularia des riu,38.9846,1.5341,17.23,92,0,0.0,ES,1699933003
211,dapa,9.7594,126.0531,29.4,69,37,0.89,PH,1699933003
212,touros,-5.1989,-35.4608,26.33,79,76,5.2,BR,1699932909
213,atafu village,-8.5421,-172.5159,26.82,87,100,5.58,TK,1699933004
214,sitka,57.0531,-135.33,4.94,81,100,6.17,US,1699933004
215,saint-pierre,-21.3393,55.4781,26.98,50,45,3.09,RE,1699933004
216,geraldton,-28.7667,114.6,25.23,65,43,5.14,AU,1699933004
217,qaqortoq,60.7167,-46.0333,-6.93,94,95,1.61,GL,1699933005
218,cabo san lucas,22.8909,-109.9124,27.64,62,0,4.63,MX,1699933005
219,east falmouth,41.5784,-70.5586,4.41,82,100,0.45,US,1699933005
220,whitehorse,60.7161,-135.0538,-4.57,85,100,2.57,CA,1699933005
221,kailua-kona,19.6406,-155.9956,27.98,79,75,3.6,US,1699933005
222,hohhot,40.8106,111.6522,2.16,27,0,1.0,CN,1699933006
223,osorno,-40.5667,-73.15,5.17,87,40,1.54,CL,1699933006
224,greymouth,-42.4667,171.2,12.37,92,100,4.23,NZ,1699933006
225,grand baie,-20.0182,57.5802,26.36,70,7,1.79,MU,1699933007
226,rio grande,-32.035,-52.0986,18.86,95,100,3.13,BR,1699933007
227,carangola,-20.7331,-42.0294,22.85,83,52,1.23,BR,1699933007
228,ancud,-41.8697,-73.8203,5.85,70,31,3.43,CL,1699933007
229,kovdor,67.5662,30.4758,-14.36,100,100,1.69,RU,1699932823
230,bardai,11.65,7.2333,20.42,20,81,3.42,NG,1699933007
231,vadso,70.0744,29.7487,-3.91,86,75,5.14,NO,1699933008
232,longyearbyen,78.2186,15.6401,-11.09,85,100,3.09,SJ,1699933008
233,koulikoro,14.0,-7.75,21.49,14,4,3.54,ML,1699933008
234,kayyerkan,69.3786,87.7439,-22.45,92,46,2.11,RU,1699933008
235,okhotsk,59.3833,143.3,-13.86,77,77,6.58,RU,1699933008
236,puerto san jose,13.9256,-90.8244,26.5,87,76,2.07,GT,1699933009
237,minas de marcona,-15.2119,-75.1103,13.78,87,65,6.15,PE,1699933009
238,klyuchi,52.2667,79.1667,3.74,87,92,3.83,RU,1699933009
239,dankalwa,11.7443,12.1867,24.02,26,98,2.89,NG,1699933009
240,dexter,36.7959,-89.9579,11.92,49,100,3.6,US,1699933009
241,vila velha,-20.3297,-40.2925,25.97,87,0,6.17,BR,1699933010
242,malvan,16.0667,73.4667,28.17,54,97,2.01,IN,1699933010
243,antofagasta,-23.65,-70.4,16.6,73,29,2.69,CL,1699932724
244,vikhorevka,56.1201,101.1636,0.77,80,98,5.58,RU,1699933010
245,torit,4.4133,32.5678,21.88,88,17,0.61,SS,1699933010
246,shalqar,47.8333,59.6,4.42,79,91,6.43,KZ,1699932769
247,kudahuvadhoo,2.6708,72.8944,27.57,74,64,1.52,MV,1699933010
248,ciudad tula,23.0,-99.7167,15.72,97,100,1.53,MX,1699933011
249,nuku'alofa,-21.1333,-175.2,24.19,88,75,8.75,TO,1699933011
250,hermanus,-34.4187,19.2345,14.7,82,57,7.47,ZA,1699933011
251,east london,-33.0153,27.9116,14.52,94,75,1.54,ZA,1699933011
252,pesqueira,-8.3578,-36.6964,20.19,86,40,2.44,BR,1699933011
253,hawaiian paradise park,19.5933,-154.9731,23.83,93,75,0.45,US,1699933011
254,guerrero negro,27.9769,-114.0611,20.15,60,100,4.18,MX,1699933012
255,kingston,17.997,-76.7936,28.53,79,20,1.54,JM,1699933012
256,ati,13.2154,18.3353,27.01,27,74,4.35,TD,1699933012
257,bonanza,14.0289,-84.591,22.5,99,87,0.94,NI,1699933012
258,tura,25.5198,90.2201,25.81,60,18,0.65,IN,1699933012
259,bel ombre,-4.6167,55.4167,28.91,79,40,4.63,SC,1699933013
260,nemuro,43.3236,145.575,5.22,51,16,9.84,JP,1699933013
261,rizokarpaso,35.6,34.375,21.6,66,7,2.13,CY,1699933013
262,berdigestyakh,62.0989,126.6992,-12.36,96,99,2.17,RU,1699933013
263,vega de alatorre,20.0333,-96.6333,21.66,84,84,6.29,MX,1699933013
264,guozhen,34.3659,107.359,12.69,49,3,0.98,CN,1699933014
265,kavaratti,10.5669,72.642,27.58,70,63,1.13,IN,1699933014
266,klaksvik,62.2266,-6.589,7.51,68,63,10.01,FO,1699933014
267,pedernales,18.0384,-71.744,26.91,62,3,2.56,DO,1699933014
268,dampit,-8.2116,112.7493,30.82,55,59,2.95,ID,1699932827
269,balugaon,20.1667,85.1,26.75,54,99,1.78,IN,1699933014
270,altania,-23.8744,-53.9017,24.6,76,34,3.49,BR,1699933015
271,vorkuta,67.5,64.0,-12.08,88,100,3.64,RU,1699933015
272,la sarre,48.8002,-79.1996,0.21,98,100,4.85,CA,1699932762
273,kununurra,-15.7667,128.7333,35.99,44,59,2.57,AU,1699933015
274,oppdal,62.5943,9.6912,-6.18,93,96,3.79,NO,1699933015
275,homer,59.6425,-151.5483,4.93,68,0,7.72,US,1699933015
276,kidal,18.4411,1.4078,22.42,17,0,4.81,ML,1699933016
277,yuzhno-kurilsk,44.0306,145.8556,2.43,80,40,9.34,RU,1699933016
278,el granada,37.5027,-122.4694,15.72,78,0,3.09,US,1699933016
279,orsa,54.5153,30.4053,2.04,78,82,4.48,BY,1699933016
280,thunder bay,48.4001,-89.3168,-3.05,93,0,0.51,CA,1699932871
281,hami,42.8,93.45,5.96,26,63,1.92,CN,1699932717
282,lorengau,-2.0226,147.2712,28.27,77,97,3.0,PG,1699933017
283,sanctuary point,-35.1114,150.629,22.96,67,99,2.53,AU,1699933017
284,khandyga,62.6667,135.6,-23.45,96,64,1.1,RU,1699933017
285,magadan,59.5667,150.8,-16.37,72,71,4.83,RU,1699933017
286,berezovo,63.9381,65.0419,-6.66,95,100,5.42,RU,1699933017
287,wenchang,30.904,118.4887,11.69,38,0,1.46,CN,1699933018
288,tofol,5.3248,163.0078,29.88,74,75,3.09,FM,1699932904
289,mendi,-6.1761,143.6513,20.4,60,95,2.89,PG,1699933018
290,saipan,15.1355,145.701,31.39,66,40,9.26,MP,1699933018
291,tartouss,34.889,35.8866,21.34,66,72,1.21,SY,1699933018
292,cestos city,5.46,-9.5828,26.18,86,69,2.46,LR,1699933019
293,campoverde,-8.4753,-74.8058,27.83,69,99,0.49,PE,1699933019
294,port macquarie,-31.4333,152.9167,25.5,66,20,6.28,AU,1699932834
295,chipata,-13.6333,32.65,20.26,75,5,2.45,ZM,1699933019
296,katabu,-4.9333,122.5167,35.03,41,42,1.67,ID,1699933019
297,malpica,43.3228,-8.8105,19.09,75,100,9.82,ES,1699933020
298,mersa matruh,31.3525,27.2453,21.19,63,33,7.02,EG,1699933020
299,suwayr,30.1171,40.3893,19.52,45,45,2.07,SA,1699933020
300,yanchep,-31.55,115.6833,30.01,51,0,5.47,AU,1699933020
301,saldanha,-33.0117,17.9442,19.03,66,16,2.88,ZA,1699933020
302,nizhnesortymskiy,62.4397,71.7603,-8.43,92,100,7.48,RU,1699933021
303,madalena,41.2162,-8.3345,17.32,88,43,1.24,PT,1699933021
304,ihsaniye,40.6909,29.8347,9.21,76,5,0.47,TR,1699933021
305,gadzhiyevo,69.2551,33.3362,-9.31,98,95,1.35,RU,1699933021
306,piacabucu,-10.4056,-36.4344,24.11,87,75,2.89,BR,1699933021
307,new norfolk,-42.7826,147.0587,16.51,29,4,2.73,AU,1699933022
308,kerikeri,-35.2268,173.9474,14.29,87,100,4.05,NZ,1699933022
309,melfi,40.9965,15.6514,11.96,93,84,3.0,IT,1699933023
310,kaohsiung,22.6163,120.3133,26.97,61,40,2.57,TW,1699933023
311,udachny,66.4167,112.4,-5.86,85,100,3.76,RU,1699933023
312,strezhevoy,60.7333,77.5889,-13.35,96,100,1.34,RU,1699933024
313,sao joao de pirabas,-0.7747,-47.1772,24.86,85,80,2.42,BR,1699933024
314,sainte-adresse,49.5089,0.0845,12.59,87,0,8.23,FR,1699933024
315,urengoy,65.9667,78.3667,-22.63,100,15,2.44,RU,1699933025
316,ocean city,39.2776,-74.5746,8.32,81,24,1.34,US,1699933025
317,al bawiti,28.3492,28.8659,18.32,56,0,2.1,EG,1699933025
318,middelburg,-25.7751,29.4648,13.75,83,80,5.97,ZA,1699933025
319,concepcion de la sierra,-27.9831,-55.5203,20.91,99,100,2.49,AR,1699933026
320,shendi,16.6915,33.4341,28.95,40,37,3.03,SD,1699933026
321,sandpoint,48.2766,-116.5533,5.24,88,100,2.06,US,1699932860
322,hampton bays,40.869,-72.5176,7.73,76,40,0.89,US,1699933027
323,red hill,33.9996,-79.2581,9.92,58,100,1.07,US,1699933027
324,najran,17.4924,44.1277,15.36,48,20,0.81,SA,1699933027
325,san antonio de pale,-1.4014,5.6325,26.13,79,19,3.07,GQ,1699933027
326,chinde,26.8418,88.0763,19.55,48,7,1.67,NP,1699933028
327,tual,-5.6667,132.75,27.88,73,48,3.24,ID,1699932783
328,mar del plata,-38.0023,-57.5575,14.49,57,0,5.36,AR,1699932841
329,pokhvistnevo,53.6524,52.1274,4.66,93,96,4.06,RU,1699933028
330,sinabang,2.4803,96.3801,25.44,86,100,1.79,ID,1699933029
331,kapa'a,22.0752,-159.319,27.99,81,40,7.2,US,1699933029
332,ajdabiya,30.7554,20.2263,18.72,76,74,4.21,LY,1699933029
333,fortuna,40.5982,-124.1573,13.32,95,100,0.45,US,1699933030
334,sao vicente,-23.9631,-46.3919,27.93,26,71,0.45,BR,1699933030
335,kalispell,48.1958,-114.3129,6.54,65,100,4.63,US,1699932885
336,swift current,50.2834,-107.8014,7.45,53,0,8.23,CA,1699933030
337,khadan khak,30.7477,67.7085,11.55,25,9,0.26,PK,1699933031
338,villa gesell,-37.2639,-56.973,12.25,60,83,5.88,AR,1699933031
339,itamaraca,-7.7478,-34.8256,27.03,83,50,2.92,BR,1699933031
340,martinsville,36.6915,-79.8725,10.21,60,0,0.0,US,1699932935
341,benguela,-12.5763,13.4055,25.4,84,100,1.29,AO,1699933032
342,patnanungan,14.7833,122.1833,27.5,82,91,9.7,PH,1699933032
343,lompoc,34.6391,-120.4579,14.08,82,0,3.09,US,1699933032
344,taoudenni,22.6783,-3.9836,23.04,20,4,6.18,ML,1699933033
345,yulinshi,38.2906,109.7494,5.19,24,0,1.61,CN,1699933034
346,topeka,39.0483,-95.678,12.51,48,0,2.06,US,1699933034
347,brookings,44.3114,-96.7984,11.88,42,0,7.72,US,1699933034
348,coracora,-15.0333,-73.7833,12.84,64,18,1.02,PE,1699933034
349,beira,-19.8436,34.8389,23.05,100,75,3.09,MZ,1699933035
350,nagato,34.3833,131.2,14.45,57,14,5.09,JP,1699933035
351,rongelap,11.1635,166.8941,27.93,82,100,7.96,MH,1699933035
352,khovd,48.0056,91.6419,-2.46,74,100,1.26,MN,1699933035
353,piti village,13.4626,144.6933,32.49,74,20,10.29,GU,1699933036
354,almeirim,-1.5233,-52.5817,27.95,57,100,2.22,BR,1699933036
355,bahia honda,22.9036,-83.1592,24.31,81,97,4.1,CU,1699933036
356,sisimiut,66.9395,-53.6735,-9.69,73,100,3.7,GL,1699933037
357,queenstown,-31.8976,26.8753,10.36,80,85,3.32,ZA,1699933037
358,san bernardo del viento,9.3533,-75.9524,27.46,87,100,2.75,CO,1699933037
359,adrar,20.5022,-10.0711,21.66,21,30,4.78,MR,1699933037
360,kardla,58.9978,22.7492,1.14,78,100,2.49,EE,1699933037
361,boende,-0.2167,20.8667,21.38,97,93,0.28,CD,1699933038
362,al burayqah,30.4062,19.5739,21.98,63,14,5.74,LY,1699933038
363,alice springs,-23.7,133.8833,35.75,13,14,2.57,AU,1699932797
364,undurkhaan,47.3194,110.6556,-10.72,77,3,1.5,MN,1699933039
365,olinda,-8.0089,-34.8553,26.85,78,75,3.09,BR,1699933039
366,bhanpura,24.513,75.7469,21.95,42,100,2.47,IN,1699933039
367,kurgunta,17.2,77.35,26.27,61,59,2.55,IN,1699933039
368,changling,44.2653,124.0005,-0.3,74,4,4.48,CN,1699933040
369,sunrise manor,36.2111,-115.0731,18.59,29,0,3.6,US,1699933040
370,changping,40.2186,116.2197,7.8,17,1,1.87,CN,1699933040
371,rimouski,48.4488,-68.524,-2.18,87,100,1.39,CA,1699932901
372,ankang,32.68,109.0172,12.83,63,55,0.81,CN,1699933040
373,maxixe,-23.8597,35.3472,22.9,60,75,6.69,MZ,1699933041
374,mengcheng chengguanzhen,33.2661,116.566,10.47,26,0,2.7,CN,1699933041
375,csorna,47.6115,17.2501,12.05,80,100,5.2,HU,1699933041
376,bodaybo,57.8506,114.1933,-4.41,93,100,1.49,RU,1699933042
377,maracaju,-21.6144,-55.1683,29.27,38,34,3.12,BR,1699933042
378,monticello,45.3055,-93.7941,9.56,47,100,2.06,US,1699933042
379,dalandzadgad,43.5708,104.425,1.84,29,88,1.11,MN,1699933043
380,al jawf,29.5,38.75,19.93,55,0,2.53,SA,1699933043
381,poltavka,54.3663,71.7632,2.94,84,97,5.54,RU,1699933043
382,kasane,-17.8167,25.15,23.3,35,78,2.85,BW,1699933043
383,langsa,4.4683,97.9683,24.45,94,100,1.43,ID,1699933044
384,meadow lakes,61.6247,-149.6011,-4.1,93,83,2.18,US,1699932886
385,port augusta,-32.5,137.7667,28.3,30,50,7.22,AU,1699933044
386,male,4.1748,73.5089,27.97,83,75,2.06,MV,1699933044
387,ribeira brava,32.65,-17.0667,20.35,79,4,1.54,PT,1699933045
388,grand falls-windsor,48.9332,-55.6649,-1.39,85,18,1.67,CA,1699933045
389,san pedro pochutla,15.7333,-96.4667,24.09,86,28,1.75,MX,1699933045
390,coxim,-18.5067,-54.76,28.11,35,9,1.29,BR,1699932842
391,shatsk,54.0258,41.7119,4.81,85,99,6.64,RU,1699933046
392,tamandare,-8.7597,-35.1047,24.68,86,95,2.01,BR,1699933046
393,kanggye,40.9695,126.5852,5.19,36,100,1.09,KP,1699933046
394,petawawa,45.9001,-77.3328,-0.12,93,100,2.67,CA,1699933047
395,al wafrah,28.6392,47.9306,21.06,58,3,1.42,KW,1699933047
396,alice town,25.7167,-79.3,25.73,75,100,4.96,BS,1699933047
397,sofo-birnin-gwari,11.0154,6.7804,20.59,25,83,2.62,NG,1699933047
398,tarawa,1.419,172.984,28.05,94,75,5.66,KI,1699933048
399,port isabel,26.0734,-97.2086,18.02,91,100,7.72,US,1699932883
400,tanjung pandan,-2.75,107.65,32.78,54,53,1.79,ID,1699933048
401,al qabil,22.571,58.6947,23.97,36,83,1.56,OM,1699933048
402,dauphin,51.1494,-100.0502,-0.92,93,0,4.12,CA,1699933049
403,tambovka,50.0969,128.0489,-5.01,74,45,2.24,RU,1699933049
404,broome,42.2506,-75.833,4.25,79,75,3.09,US,1699932988
405,praia da vitoria,38.7333,-27.0667,16.53,94,40,2.17,PT,1699933049
406,lipova,46.0833,21.7,9.57,76,100,3.07,RO,1699933050
407,phan rang-thap cham,11.5667,108.9833,29.76,69,97,5.85,VN,1699933050
408,saudarkrokur,65.7461,-19.6394,-1.58,83,11,4.27,IS,1699933050
409,inarajan village,13.2736,144.7484,32.54,83,23,8.84,GU,1699933050
410,medina,24.4686,39.6142,24.24,31,0,1.54,SA,1699932766
411,bor,56.3567,44.0669,5.56,77,94,5.57,RU,1699933051
412,sujiatun,41.6592,123.3392,7.1,42,0,3.0,CN,1699933051
413,banjar,-8.19,114.9675,30.39,72,55,0.68,ID,1699933051
414,howard springs,-12.497,131.047,33.26,59,44,4.28,AU,1699933052
415,turkestan,43.3333,68.25,8.33,40,2,2.55,KZ,1699933052
416,uturoa,-16.7333,-151.4333,26.95,84,65,8.34,PF,1699933052
417,box elder,41.5005,-112.8764,8.48,42,100,0.74,US,1699933052
418,dolores,-36.3132,-57.6792,11.65,59,82,2.18,AR,1699933053
419,barguzin,53.6167,109.6167,-3.12,86,100,0.33,RU,1699933053
420,pastos bons,-6.6017,-44.0767,25.52,45,0,0.86,BR,1699933053
421,luorong,24.4058,109.6086,12.12,77,99,2.51,CN,1699933053
422,truth or consequences,33.1284,-107.2528,12.17,71,75,3.6,US,1699933054
423,polyarnyy,69.1989,33.4478,-9.18,97,95,1.19,RU,1699933054
424,labuan,5.2767,115.2417,32.2,74,20,1.54,MY,1699933054
425,gamba,-2.65,10.0,25.42,87,100,2.54,GA,1699933055
426,hirara,24.8,125.2833,24.15,50,40,6.17,JP,1699933055
427,sarakhs,36.5449,61.1577,16.45,34,35,3.17,IR,1699933055
428,vilyuysk,63.7553,121.6247,-11.01,94,100,2.39,RU,1699933055
429,chonchi,-42.6128,-73.8092,4.56,92,79,1.49,CL,1699933056
430,borba,-4.3878,-59.5939,27.6,61,79,0.64,BR,1699933056
431,loango,-4.6719,11.8312,25.81,94,100,0.51,CG,1699933056
432,balta,47.9355,29.6198,4.02,69,40,3.59,UA,1699933057
433,biloela,-24.4167,150.5,35.69,24,0,3.67,AU,1699933057
434,serang,-6.1149,106.1502,31.59,61,100,2.08,ID,1699933057
435,baikonur,45.6167,63.3167,4.33,67,100,6.11,KZ,1699933057
436,harnosand,62.6323,17.9379,-6.0,87,100,5.36,SE,1699933058
437,manfalut,27.3104,30.97,20.26,78,0,3.97,EG,1699933058
438,winnemucca,40.973,-117.7357,11.0,24,100,2.0,US,1699933058
439,itapuranga,-15.5622,-49.9486,24.24,39,3,0.2,BR,1699933059
440,bridgewater,44.3835,-64.5155,-0.18,91,9,2.57,CA,1699933059
441,burley,42.5357,-113.7928,10.72,33,0,3.58,US,1699932922
442,moussoro,13.6408,16.4901,28.36,22,88,7.56,TD,1699933060
443,charters towers,-20.1,146.2667,35.25,17,0,7.41,AU,1699933055
444,patong,7.8961,98.2966,30.57,67,100,4.83,TH,1699933060
445,carutapera,-1.195,-46.02,25.09,85,78,3.06,BR,1699933061
446,fisterra,42.9049,-9.2629,18.75,94,100,12.82,ES,1699933061
447,acarau,-2.8856,-40.12,26.4,78,92,6.34,BR,1699932770
448,hammerfest,70.6634,23.6821,-0.75,93,100,0.0,NO,1699933061
449,juneau,58.3019,-134.4197,2.0,97,100,10.8,US,1699933061
450,doctor juan leon mallorquin,-25.4,-55.2667,22.85,97,96,1.87,PY,1699933062
451,murun-kuren,49.6342,100.1625,-4.91,68,100,1.63,MN,1699933062
452,ulladulla,-35.35,150.4667,24.32,70,97,4.04,AU,1699933062
453,genhe,50.7833,121.5167,-5.75,61,69,1.63,CN,1699933062
454,salalah,17.0151,54.0924,26.05,89,75,1.03,OM,1699933063
455,codrington,-38.2667,141.9667,15.85,61,100,4.54,AU,1699933063
456,la passe,45.5549,-0.8967,15.13,90,100,3.98,FR,1699933063
457,puerto aysen,-45.4,-72.7,2.06,99,100,2.23,CL,1699933063
458,kuta,-8.7233,115.1723,26.97,94,75,4.63,ID,1699933064
459,spearfish,44.4908,-103.8594,15.71,22,0,0.0,US,1699933064
460,naze,28.3667,129.4833,18.51,57,79,3.34,JP,1699933065
461,callao,-12.0667,-77.15,20.95,77,75,5.14,PE,1699933065
462,pacasmayo,-7.4006,-79.5714,19.55,84,21,5.93,PE,1699933065
463,el bayadh,33.6832,1.0193,10.37,27,10,1.67,DZ,1699933065
464,victoria,22.2855,114.1577,21.91,75,98,0.45,HK,1699933066
465,el bauga,18.262,33.9081,26.64,51,100,1.33,SD,1699933066
466,keetmanshoop,-26.5833,18.1333,24.51,13,0,4.63,NA,1699933066
467,nefta,33.8731,7.8777,17.14,53,0,1.66,TN,1699933066
468,mitu,1.1983,-70.1733,22.98,99,98,0.92,CO,1699933067
469,tucacas,10.7906,-68.3258,26.61,88,94,5.2,VE,1699933067
470,dergachi,51.2328,48.7659,5.51,85,100,2.54,RU,1699933067
471,lockwood,45.8191,-108.4149,12.94,35,75,5.66,US,1699933067
472,outokumpu,62.7269,29.0159,-1.84,87,100,4.6,FI,1699933068
473,santa ana de yacuma,-13.75,-65.4333,29.89,49,62,2.58,BO,1699933068
474,yorkton,51.2167,-102.4677,-0.09,80,20,5.14,CA,1699932956
475,inari,68.906,27.0288,-19.89,97,25,1.2,FI,1699933068
476,terre haute,39.4667,-87.4139,7.69,69,0,0.0,US,1699932899
477,fort st. john,56.2499,-120.8529,-6.06,93,0,2.57,CA,1699933069
478,iquique,-20.2208,-70.1431,19.02,78,35,0.87,CL,1699933069
479,sao jose da coroa grande,-8.8978,-35.1478,24.75,86,96,2.04,BR,1699933069
480,san luis de la loma,17.2706,-100.8939,26.6,83,36,2.63,MX,1699933069
481,altai,46.3722,96.2583,-8.0,86,100,4.03,MN,1699932825
482,la ronge,55.1001,-105.2842,1.14,75,100,4.63,CA,1699933070
483,mamuju,-2.6748,118.8885,30.02,69,100,2.13,ID,1699933070
484,talcahuano,-36.7167,-73.1167,10.82,76,0,4.63,CL,1699933070
485,umba,66.6871,34.3429,-6.45,89,34,5.7,RU,1699933070
486,saint croix,17.7397,-64.7388,27.25,78,40,4.63,VI,1699933070
487,gizo,-8.103,156.8419,27.65,75,100,3.72,SB,1699933071
488,yoichi,43.2039,140.7703,4.8,65,98,7.34,JP,1699933071
489,buka,40.8108,69.1986,10.96,32,0,1.25,UZ,1699933071
490,lecheng,25.1238,113.3254,11.28,93,100,0.75,CN,1699933071
491,malakal,9.5334,31.6605,25.06,75,55,1.6,SS,1699933071
492,yershov,51.3513,48.2766,5.16,85,100,3.14,RU,1699932987
493,kumasi,6.6885,-1.6244,22.1,94,7,1.27,GH,1699933071
494,rupert,42.6191,-113.6772,6.97,33,0,3.09,US,1699932800
495,petauke,-14.2426,31.3253,20.81,67,23,3.92,ZM,1699933072
496,charlestown,-32.95,151.6667,28.06,69,75,2.24,AU,1699933072
497,yeniseysk,58.4497,92.1703,-4.47,88,69,4.02,RU,1699933072
498,miles city,46.4083,-105.8406,6.54,61,0,4.12,US,1699933072
499,port moresby,-9.4431,147.1797,30.68,51,40,6.17,PG,1699933072
500,lemvig,56.5486,8.3102,5.67,94,100,13.59,DK,1699933073
501,at taj,24.2049,23.2857,16.22,37,0,3.89,LY,1699933073
502,san ignacio de velasco,-16.3667,-60.95,24.38,66,6,1.84,BO,1699933073
503,arvayheer,46.2639,102.775,-3.4,24,76,0.73,MN,1699933073
504,kandahar,31.0,65.75,15.62,27,24,1.1,AF,1699933073
505,urucui,-7.2294,-44.5561,27.1,40,0,1.17,BR,1699933074
506,la malbaie,47.6575,-70.1559,-2.41,85,7,1.26,CA,1699932971
507,tafuna,-14.3358,-170.72,32.97,70,75,3.6,AS,1699933074
508,anna,51.4842,40.4299,2.93,86,100,3.77,RU,1699933074
509,sarkand,45.41,79.9186,2.88,51,2,1.52,KZ,1699933074
510,kavieng,-2.5744,150.7967,28.94,66,59,1.77,PG,1699933075
511,cromwell,41.5951,-72.6454,3.28,85,40,0.0,US,1699933075
512,westport,41.1415,-73.3579,6.68,79,0,0.45,US,1699933075
513,al bayda',32.7627,21.7551,13.48,85,8,4.5,LY,1699933075
514,buala,-8.145,159.5921,28.66,73,64,2.54,SB,1699933075
515,sanya,18.2431,109.505,30.09,58,40,6.0,CN,1699933076
516,port alfred,-33.5906,26.891,13.43,95,79,5.57,ZA,1699933076
517,pisco,-13.7,-76.2167,19.45,82,0,5.14,PE,1699933076
518,huilong,31.8111,121.655,12.99,58,13,3.67,CN,1699933076
519,haifa,32.8156,34.9892,21.27,77,6,3.08,IL,1699933076
520,egersund,58.4513,5.9997,5.05,61,100,9.47,NO,1699933076
521,sorong,-0.8833,131.25,29.34,69,87,3.23,ID,1699933077
522,sao felix do xingu,-6.6447,-51.995,25.4,56,0,0.49,BR,1699933077
523,bull savanna,17.8868,-77.5902,24.87,85,7,3.08,JM,1699933077
524,ocher,57.8904,54.7202,4.61,94,100,7.21,RU,1699933077
525,sibut,5.718,19.0739,22.06,94,100,0.33,CF,1699933077
526,ailuk,10.2197,169.9797,26.77,87,91,9.05,MH,1699933078
527,galesong,-5.3166,119.3661,33.01,61,57,3.62,ID,1699933078
528,holualoa,19.6228,-155.9522,25.91,80,75,3.6,US,1699933078
529,tupancireta,-29.0806,-53.8358,18.81,99,100,2.21,BR,1699933078
530,turbat,26.0023,63.044,25.53,18,52,2.02,PK,1699933078
531,turaif,31.6725,38.6637,18.14,36,0,5.14,SA,1699933078
532,mwinilunga,-11.7358,24.4293,15.59,97,40,1.65,ZM,1699932862
533,paracuru,-3.41,-39.0306,27.28,80,99,3.63,BR,1699933079
534,floro,61.5996,5.0328,5.54,70,7,3.09,NO,1699933079
535,machico,32.7,-16.7667,20.35,83,75,2.57,PT,1699932781
536,chakia,26.4167,85.05,25.73,41,55,1.99,IN,1699933079
537,aswan,24.0934,32.907,24.7,43,40,4.9,EG,1699933079
538,boukadir,36.0663,1.126,13.4,55,11,1.27,DZ,1699933079
539,bengkulu,-3.8004,102.2655,27.87,79,88,2.86,ID,1699933080
540,vanimo,-2.6741,141.3028,29.32,75,92,1.56,PG,1699933080
541,sun lakes,33.2112,-111.8754,25.85,32,0,4.12,US,1699933080
542,eydhafushi,5.1033,73.0708,27.4,76,93,1.43,MV,1699933080
543,beaufort west,-32.3567,22.583,11.71,79,0,4.65,ZA,1699933080
544,weyburn,49.6668,-103.8511,0.12,80,79,4.12,CA,1699933080
545,makow mazowiecki,52.8649,21.1005,3.83,92,100,4.44,PL,1699933081
546,svyetlahorsk,52.6329,29.7389,1.74,93,31,3.78,BY,1699933081
547,valparaiso,-33.0393,-71.6273,11.8,76,0,1.54,CL,1699932827
548,beichengqu,40.4394,113.1536,1.52,28,0,2.13,CN,1699933081
549,daru,-9.0763,143.2092,28.57,62,30,4.7,PG,1699933081
550,monteagudo,-19.8167,-63.9833,19.88,94,52,0.7,BO,1699933082
551,noshiro,40.2039,140.0242,6.46,56,100,7.04,JP,1699933082
552,sesheke,-17.4759,24.2968,23.11,43,49,2.35,ZM,1699933082
553,contamana,-7.3333,-75.0167,26.14,73,66,1.17,PE,1699933083
554,linqu,36.5156,118.5397,9.5,18,70,1.34,CN,1699933083
555,auki,-8.7676,160.7034,27.52,79,92,1.12,SB,1699933083
556,isla vista,34.4133,-119.861,16.3,71,0,1.54,US,1699933083
557,sojat,25.9167,73.6667,24.46,29,100,2.4,IN,1699933084
558,island harbour,50.724,-1.2758,14.4,86,85,3.13,GB,1699933084
559,mana,5.6592,-53.7767,25.82,90,4,3.21,GF,1699933084
560,carahue,-38.7,-73.1667,6.86,98,76,1.07,CL,1699933085
561,amos,48.5669,-78.1162,0.51,98,100,3.23,CA,1699933085
562,pacific grove,36.6177,-121.9166,13.15,84,0,2.24,US,1699933085
563,daye,30.0833,114.95,12.74,43,0,0.32,CN,1699933085
564,edson,53.5835,-116.4356,-0.92,74,75,2.06,CA,1699933086
565,ash shatrah,31.4117,46.1742,22.2,34,0,2.65,IQ,1699933086
566,guymon,36.6828,-101.4816,8.0,71,0,4.12,US,1699933086
